{"config":{"brand":"GRUBHUB","environment":"prod","clientId":"mp_yFU6flWhiKRdlgSMrwC43FF2","apiUrl":"https:\u002F\u002Fapi-gtm.grubhub.com","googleTaskManagerId":"Qk9_foQboheEFFNVDQq0cA","gtmEnv":"2","googleTrackingId":"UA-1254261-8","googleTagManagerAuthToken":"Qk9_foQboheEFFNVDQq0cA","googleTagManagerEnv":"2","googleTagManagerId":"GTM-NFGMXTS","optimizeContainerId":"GTM-K9PPLQ5","clickstreamV1Url":"https:\u002F\u002Fclickstream.grubhub.com","clickstreamPlatform":"umami menu pages","clickstreamApp":"responsive web","appVersion":"1","clickstreamVersion":"2.0.21","clickstreamBrand":"menupages","libsUrl":"https:\u002F\u002Fassets.grubhub.com\u002Flibs","baseUrl":"\u002F"},"baseUrl":"\u002F","domain":"menupages.com","loading":false,"notification":null,"dialog":{"show":false},"cityPages":{"cities":[{"name":"New York","state":"NY","url":"restaurants\u002Fny-new-york","state_url":"restaurants\u002Fny"},{"name":"Brooklyn","state":"NY","url":"restaurants\u002Fny-brooklyn","state_url":"restaurants\u002Fny"},{"name":"Chicago","state":"IL","url":"restaurants\u002Fil-chicago","state_url":"restaurants\u002Fil"},{"name":"Los Angeles","state":"CA","url":"restaurants\u002Fca-los-angeles","state_url":"restaurants\u002Fca"},{"name":"San Francisco","state":"CA","url":"restaurants\u002Fca-san-francisco","state_url":"restaurants\u002Fca"},{"name":"Philadelphia","state":"PA","url":"restaurants\u002Fpa-philadelphia","state_url":"restaurants\u002Fpa"},{"name":"Miami","state":"FL","url":"restaurants\u002Ffl-miami","state_url":"restaurants\u002Ffl"},{"name":"San Diego","state":"CA","url":"restaurants\u002Fca-san-diego","state_url":"restaurants\u002Fca"},{"name":"Washington","state":"DC","url":"restaurants\u002Fdc-washington","state_url":""},{"name":"Houston","state":"TX","url":"restaurants\u002Ftx-houston","state_url":"restaurants\u002Ftx"},{"name":"Seattle","state":"WA","url":"restaurants\u002Fwa-seattle","state_url":"restaurants\u002Fwa"},{"name":"Las Vegas","state":"NV","url":"restaurants\u002Fnv-las-vegas","state_url":"restaurants\u002Fnv"},{"name":"Bronx","state":"NY","url":"restaurants\u002Fny-bronx","state_url":"restaurants\u002Fny"},{"name":"Astoria","state":"NY","url":"restaurants\u002Fny-astoria","state_url":"restaurants\u002Fny"},{"name":"Boston","state":"MA","url":"restaurants\u002Fma-boston","state_url":"restaurants\u002Fma"},{"name":"San Jose","state":"CA","url":"restaurants\u002Fca-san-jose","state_url":"restaurants\u002Fca"},{"name":"Denver","state":"CO","url":"restaurants\u002Fco-denver","state_url":"restaurants\u002Fco"},{"name":"Baltimore","state":"MD","url":"restaurants\u002Fmd-baltimore","state_url":"restaurants\u002Fmd"},{"name":"Atlanta","state":"GA","url":"restaurants\u002Fga-atlanta","state_url":"restaurants\u002Fga"},{"name":"Jersey City","state":"NJ","url":"restaurants\u002Fnj-jersey-city","state_url":"restaurants\u002Fnj"},{"name":"Miami Beach","state":"FL","url":"restaurants\u002Ffl-miami-beach","state_url":"restaurants\u002Ffl"},{"name":"Dallas","state":"TX","url":"restaurants\u002Ftx-dallas","state_url":"restaurants\u002Ftx"},{"name":"Fort Lauderdale","state":"FL","url":"restaurants\u002Ffl-fort-lauderdale","state_url":"restaurants\u002Ffl"},{"name":"Santa Monica","state":"CA","url":"restaurants\u002Fca-santa-monica","state_url":"restaurants\u002Fca"},{"name":"Oakland","state":"CA","url":"restaurants\u002Fca-oakland","state_url":"restaurants\u002Fca"},{"name":"Sacramento","state":"CA","url":"restaurants\u002Fca-sacramento","state_url":"restaurants\u002Fca"},{"name":"Staten Island","state":"NY","url":"restaurants\u002Fny-staten-island","state_url":"restaurants\u002Fny"},{"name":"Long Beach","state":"CA","url":"restaurants\u002Fca-long-beach","state_url":"restaurants\u002Fca"},{"name":"Pittsburgh","state":"PA","url":"restaurants\u002Fpa-pittsburgh","state_url":"restaurants\u002Fpa"},{"name":"Arlington","state":"VA","url":"restaurants\u002Fva-arlington","state_url":"restaurants\u002Fva"},{"name":"Torrance","state":"CA","url":"restaurants\u002Fca-torrance","state_url":"restaurants\u002Fca"},{"name":"Austin","state":"TX","url":"restaurants\u002Ftx-austin","state_url":"restaurants\u002Ftx"},{"name":"Long Island City","state":"NY","url":"restaurants\u002Fny-long-island-city","state_url":"restaurants\u002Fny"},{"name":"Alexandria","state":"VA","url":"restaurants\u002Fva-alexandria","state_url":"restaurants\u002Fva"},{"name":"Portland","state":"OR","url":"restaurants\u002For-portland","state_url":"restaurants\u002For"},{"name":"North Hollywood","state":"CA","url":"restaurants\u002Fca-north-hollywood","state_url":"restaurants\u002Fca"},{"name":"Phoenix","state":"AZ","url":"restaurants\u002Faz-phoenix","state_url":"restaurants\u002Faz"},{"name":"Pasadena","state":"CA","url":"restaurants\u002Fca-pasadena","state_url":"restaurants\u002Fca"},{"name":"Anchorage","state":"AK","state_url":"restaurants\u002Fak","url":"restaurants\u002Fak-anchorage","nearby_cities":[],"meta_description":"Explore menus for restaurants in Anchorage, AK on MenuPages, your online source for restaurant menus in Anchorage. Dining in? Order online for delivery or takeout with MenuPages. Find your next meal now ...","title_tag":"Anchorage Menus - Anchorage, AK Restaurants Guide","is_active":true,"restaurants":[{"id":"349727","name":"AK Wok","street_address":"600 E Northern Lights","phone":"9074448000","logo":"https:\u002F\u002Fmedia-cdn.grubhub.com\u002Fimage\u002Fupload\u002Fv1550262546\u002Flbulynf0jj5tmbcjn3l1.jpg","url":"ak-wok\u002F600-e-northern-lights-anchorage","package_state_type_id":13,"zip_code":"99503","restaurant_hours":[{"hour_type":"Primary","day":"Sunday","hours":"12:00 PM - 6:00 PM"},{"hour_type":"Primary","day":"Monday","hours":"10:00 AM - 9:00 PM"},{"hour_type":"Primary","day":"Tuesday","hours":"10:00 AM - 9:00 PM"},{"hour_type":"Primary","day":"Wednesday","hours":"10:00 AM - 9:00 PM"},{"hour_type":"Primary","day":"Thursday","hours":"10:00 AM - 9:00 PM"},{"hour_type":"Primary","day":"Friday","hours":"10:00 AM - 9:00 PM"},{"hour_type":"Primary","day":"Saturday","hours":"10:00 AM - 7:00 PM"}],"cuisines":["Dinner","Chinese","Asian"],"service_type":"DELIVERY_AND_PICKUP"},{"id":"560221","name":"Cecy's Pizza","street_address":"1172 Gambell St","phone":"9077707877","logo":"https:\u002F\u002Fmedia-cdn.grubhub.com\u002Fimage\u002Fupload\u002Fv1592919062\u002Fhziioia1txe0le3f4m8e.jpg","url":"cecys-pizza\u002F1172-gambell-st-anchorage","package_state_type_id":2,"zip_code":"99501","restaurant_hours":[{"hour_type":"Primary","day":"Sunday","hours":"3:10 PM - 3:00 AM"},{"hour_type":"Primary","day":"Monday","hours":"5:10 PM - 2:30 AM"},{"hour_type":"Primary","day":"Tuesday","hours":"5:10 PM - 2:30 AM"},{"hour_type":"Primary","day":"Wednesday","hours":"3:10 PM - 3:00 AM"},{"hour_type":"Primary","day":"Thursday","hours":"3:10 PM - 3:00 AM"},{"hour_type":"Primary","day":"Friday","hours":"3:10 PM - 3:00 AM"},{"hour_type":"Primary","day":"Saturday","hours":"3:10 PM - 2:30 AM"}],"cuisines":["Pizza","Italian","Dinner","Sandwiches"],"service_type":"DELIVERY_AND_PICKUP"},{"id":"363335","name":"Fat Ptarmigan","street_address":"441 W 5th Ave","phone":"9077777710","logo":"https:\u002F\u002Fmedia-cdn.grubhub.com\u002Fimage\u002Fupload\u002Fv1583735814\u002Fqjhwr1eaaldrozq0vkf2.png","url":"fat-ptarmigan\u002F441-w-5th-ave-anchorage","package_state_type_id":2,"zip_code":"99501","restaurant_hours":[{"hour_type":"Primary","day":"Monday","hours":"11:00 AM - 7:00 PM"},{"hour_type":"Primary","day":"Tuesday","hours":"11:00 AM - 7:00 PM"},{"hour_type":"Primary","day":"Wednesday","hours":"11:00 AM - 7:00 PM"},{"hour_type":"Primary","day":"Thursday","hours":"11:00 AM - 7:00 PM"},{"hour_type":"Primary","day":"Friday","hours":"11:00 AM - 8:00 PM"},{"hour_type":"Primary","day":"Saturday","hours":"11:00 AM - 8:00 PM"},{"hour_type":"Primary","day":"Sunday","hours":"11:00 AM - 7:00 PM"}],"cuisines":["Pizza","Italian","Dinner","Salads","Pasta","Sandwiches"],"service_type":"DELIVERY_AND_PICKUP"},{"id":"375749","name":"Hawaii Sushi","street_address":"3826 Spenard Rd","phone":"9072028701","logo":"https:\u002F\u002Fres.cloudinary.com\u002Fgrubhub\u002Fimage\u002Fupload\u002Fv1499105654\u002Fhrxegmsjzl5we2esokff.jpg","url":"hawaii-sushi\u002F3826-spenard-rd-anchorage","package_state_type_id":13,"zip_code":"99517","restaurant_hours":[{"hour_type":"Primary","day":"Sunday","hours":"12:00 PM - 10:00 PM"},{"hour_type":"Primary","day":"Tuesday","hours":"11:00 AM - 10:00 PM"},{"hour_type":"Primary","day":"Wednesday","hours":"11:00 AM - 10:00 PM"},{"hour_type":"Primary","day":"Thursday","hours":"11:00 AM - 10:00 PM"},{"hour_type":"Primary","day":"Friday","hours":"11:00 AM - 10:00 PM"},{"hour_type":"Primary","day":"Saturday","hours":"12:00 PM - 10:00 PM"}],"cuisines":["Dinner"],"service_type":"DELIVERY_AND_PICKUP"},{"id":"349887","name":"Jasmine thai","street_address":"600 E. Northern Lights Blvd.","phone":"9075638335","logo":"https:\u002F\u002Fmedia-cdn.grubhub.com\u002Fimage\u002Fupload\u002Fv1550263188\u002Fynxry50l2hw2ajxsegry.jpg","url":"jasmine-thai\u002F600-e-northern-lights-blvd-anchorage","package_state_type_id":13,"zip_code":"99503","restaurant_hours":[{"hour_type":"Primary","day":"Sunday","hours":"12:00 PM - 6:00 PM"},{"hour_type":"Primary","day":"Monday","hours":"10:00 AM - 9:00 PM"},{"hour_type":"Primary","day":"Tuesday","hours":"10:00 AM - 9:00 PM"},{"hour_type":"Primary","day":"Wednesday","hours":"10:00 AM - 9:00 PM"},{"hour_type":"Primary","day":"Thursday","hours":"10:00 AM - 9:00 PM"},{"hour_type":"Primary","day":"Friday","hours":"10:00 AM - 9:00 PM"},{"hour_type":"Primary","day":"Saturday","hours":"10:00 AM - 7:00 PM"}],"cuisines":["Dinner","Thai","Lunch Specials","Asian"],"service_type":"DELIVERY_AND_PICKUP"},{"id":"307807","name":"La Cabana Mexican Restaurant","street_address":"312 E 4th Ave","phone":"9072720135","logo":"https:\u002F\u002Fres.cloudinary.com\u002Fgrubhub\u002Fimage\u002Fupload\u002Fv1452472256\u002Flyjx60moie6uawgjggv3.jpg","url":"la-cabana-mexican-restaurant\u002F312-e-4th-ave-anchorage","package_state_type_id":13,"zip_code":"99501","restaurant_hours":[],"cuisines":["Mexican","Dinner"],"service_type":"PICKUP"},{"id":"551075","name":"Marco T's Pizzeria","street_address":"302 W Fireweed Ln","phone":"9079293663","logo":"https:\u002F\u002Fres.cloudinary.com\u002Fgrubhub\u002Fimage\u002Fupload\u002Fv1510962247\u002Fnqiieaf7u5rr4w9lve1o.png","url":"marco-ts-pizzeria\u002F302-w-fireweed-ln-anchorage","package_state_type_id":13,"zip_code":"99503","restaurant_hours":[],"cuisines":["Pizza","Dinner","Fast Food","Salads","Lunch"],"service_type":"PICKUP"},{"id":"2218985","name":"Ollin Tea & Cafe","street_address":"300 E Dimond Blvd Ste 15","phone":"9076778763","logo":"https:\u002F\u002Fmedia-cdn.grubhub.com\u002Fimage\u002Fupload\u002Fv1615300564\u002Fyik042ktkgwmhmyyvt8b.png","url":"ollin-tea-cafe\u002F300-e-dimond-blvd-ste-15-anchorage","package_state_type_id":3,"zip_code":"99515","restaurant_hours":[{"hour_type":"Primary","day":"Monday","hours":"11:00 AM - 5:00 PM"},{"hour_type":"Primary","day":"Tuesday","hours":"11:00 AM - 6:00 PM"},{"hour_type":"Primary","day":"Wednesday","hours":"11:00 AM - 4:00 PM"},{"hour_type":"Primary","day":"Thursday","hours":"11:00 AM - 6:00 PM"},{"hour_type":"Primary","day":"Friday","hours":"11:00 AM - 7:00 PM"},{"hour_type":"Primary","day":"Saturday","hours":"11:30 AM - 4:00 PM"}],"cuisines":["Breakfast","Sandwiches"],"service_type":"DELIVERY_AND_PICKUP"},{"id":"557337","name":"Palermo Pizza and Phillys","street_address":"6406 Debarr Rd","phone":"9072055088","logo":"https:\u002F\u002Fres.cloudinary.com\u002Fgrubhub\u002Fimage\u002Fupload\u002Fv1509629580\u002Fbedy5ikdvgvrkvoohsgk.png","url":"palermo-pizza-and-phillys\u002F6406-debarr-rd-anchorage","package_state_type_id":13,"zip_code":"99504","restaurant_hours":[{"hour_type":"Primary","day":"Monday","hours":"12:00 PM - 12:00 AM"},{"hour_type":"Primary","day":"Tuesday","hours":"12:00 PM - 12:00 AM"},{"hour_type":"Primary","day":"Wednesday","hours":"12:00 PM - 12:00 AM"},{"hour_type":"Primary","day":"Thursday","hours":"12:00 PM - 12:00 AM"},{"hour_type":"Primary","day":"Friday","hours":"12:00 PM - 12:00 AM"},{"hour_type":"Primary","day":"Saturday","hours":"12:00 PM - 12:00 AM"},{"hour_type":"Primary","day":"Sunday","hours":"12:00 PM - 12:00 AM"}],"cuisines":["Pizza","Cheesesteaks","Wings","American","Dinner","Pasta","Hamburgers","Lunch Specials"],"service_type":"DELIVERY_AND_PICKUP"},{"id":"561829","name":"Papa John's Pizza","street_address":"700 W Northern Lights Blvd","phone":"9078847272","logo":"https:\u002F\u002Fmedia-cdn.grubhub.com\u002Fimage\u002Fupload\u002Fv1640708602\u002Ftxsxrnipbvauezr79bxm.png","url":"papa-johns-pizza\u002F700-w-northern-lights-blvd-anchorage","package_state_type_id":2,"zip_code":"99503","restaurant_hours":[{"hour_type":"Primary","day":"Monday","hours":"10:00 AM - 9:55 PM"},{"hour_type":"Primary","day":"Tuesday","hours":"10:00 AM - 9:55 PM"},{"hour_type":"Primary","day":"Wednesday","hours":"10:00 AM - 9:55 PM"},{"hour_type":"Primary","day":"Thursday","hours":"10:00 AM - 9:55 PM"},{"hour_type":"Primary","day":"Friday","hours":"10:00 AM - 10:55 PM"},{"hour_type":"Primary","day":"Saturday","hours":"10:00 AM - 10:55 PM"},{"hour_type":"Primary","day":"Sunday","hours":"10:00 AM - 9:55 PM"}],"cuisines":["Pizza","Italian","Wings","Dinner","Fast Food"],"service_type":"DELIVERY_AND_PICKUP"},{"id":"561835","name":"Papa John's Pizza","street_address":"360 Boniface Pkwy","phone":"9073337272","logo":"https:\u002F\u002Fmedia-cdn.grubhub.com\u002Fimage\u002Fupload\u002Fv1640708602\u002Ftxsxrnipbvauezr79bxm.png","url":"papa-johns-pizza\u002F360-boniface-pkwy-anchorage","package_state_type_id":2,"zip_code":"99504","restaurant_hours":[{"hour_type":"Primary","day":"Monday","hours":"10:00 AM - 11:40 PM"},{"hour_type":"Primary","day":"Tuesday","hours":"10:00 AM - 11:40 PM"},{"hour_type":"Primary","day":"Wednesday","hours":"10:00 AM - 11:40 PM"},{"hour_type":"Primary","day":"Thursday","hours":"10:00 AM - 11:40 PM"},{"hour_type":"Primary","day":"Friday","hours":"10:00 AM - 12:00 AM"},{"hour_type":"Primary","day":"Saturday","hours":"12:00 AM - 12:40 AM"},{"hour_type":"Secondary","day":"Saturday","hours":"10:00 AM - 12:00 AM"},{"hour_type":"Primary","day":"Sunday","hours":"12:00 AM - 12:40 AM"},{"hour_type":"Secondary","day":"Sunday","hours":"10:00 AM - 11:40 PM"}],"cuisines":["Pizza","Wings","Dinner","Fast Food"],"service_type":"DELIVERY_AND_PICKUP"},{"id":"1394782","name":"Ski & Benny Pizza","street_address":"820 Bilbo St","phone":"9073125304","logo":"https:\u002F\u002Fres.cloudinary.com\u002Fgrubhub\u002Fimage\u002Fupload\u002Fv1455555435\u002Ffqfwv4qrlkdzbmejgohi.png","url":"ski-benny-pizza\u002F820-bilbo-st-anchorage","package_state_type_id":2,"zip_code":"99501","restaurant_hours":[{"hour_type":"Primary","day":"Monday","hours":"12:00 PM - 11:30 PM"},{"hour_type":"Primary","day":"Tuesday","hours":"12:00 PM - 11:30 PM"},{"hour_type":"Primary","day":"Wednesday","hours":"12:00 PM - 11:30 PM"},{"hour_type":"Primary","day":"Thursday","hours":"12:00 PM - 11:30 PM"},{"hour_type":"Primary","day":"Friday","hours":"12:00 PM - 11:30 PM"},{"hour_type":"Primary","day":"Saturday","hours":"12:00 PM - 11:30 PM"}],"cuisines":["Pizza","Cheesesteaks","American","Vegetarian","Calzones","Salads","Pasta","Sandwiches","Gyro"],"service_type":"DELIVERY_AND_PICKUP"},{"id":"336006","name":"Sparta Pizza","street_address":"1005 E Dimond Blvd Ste 4","phone":"9073314687","logo":"https:\u002F\u002Fres.cloudinary.com\u002Fgrubhub\u002Fimage\u002Fupload\u002Fv1469485734\u002Ffflxtoctetp9quv7q5mp.png","url":"sparta-pizza\u002F1005-e-dimond-blvd-ste-4-anchorage","package_state_type_id":13,"zip_code":"99515","restaurant_hours":[{"hour_type":"Primary","day":"Monday","hours":"11:00 AM - 11:00 PM"},{"hour_type":"Primary","day":"Tuesday","hours":"11:00 AM - 11:00 PM"},{"hour_type":"Primary","day":"Wednesday","hours":"11:00 AM - 11:00 PM"},{"hour_type":"Primary","day":"Thursday","hours":"11:00 AM - 11:00 PM"},{"hour_type":"Primary","day":"Friday","hours":"11:00 AM - 11:00 PM"},{"hour_type":"Primary","day":"Saturday","hours":"11:00 AM - 11:00 PM"},{"hour_type":"Primary","day":"Sunday","hours":"11:00 AM - 11:00 PM"}],"cuisines":["Pizza","Dinner","Sandwiches","Greek"],"service_type":"DELIVERY_AND_PICKUP"},{"id":"316631","name":"That Wing Place","street_address":"360 Boniface Pkwy Unit B11","phone":"9073349464","logo":"https:\u002F\u002Fmedia-cdn.grubhub.com\u002Fimage\u002Fupload\u002Fv1526854406\u002Fz6ie0zhb50ss4dzlgurz.jpg","url":"that-wing-place\u002F360-boniface-pkwy-unit-b11-anchorage","package_state_type_id":13,"zip_code":"99504","restaurant_hours":[{"hour_type":"Primary","day":"Sunday","hours":"12:00 PM - 8:00 PM"},{"hour_type":"Primary","day":"Monday","hours":"11:00 AM - 10:00 PM"},{"hour_type":"Primary","day":"Tuesday","hours":"11:00 AM - 10:00 PM"},{"hour_type":"Primary","day":"Wednesday","hours":"11:00 AM - 10:00 PM"},{"hour_type":"Primary","day":"Thursday","hours":"11:00 AM - 10:00 PM"},{"hour_type":"Primary","day":"Friday","hours":"11:00 AM - 11:00 PM"},{"hour_type":"Primary","day":"Saturday","hours":"11:00 AM - 11:00 PM"}],"cuisines":["Wings","Dinner"],"service_type":"DELIVERY_AND_PICKUP"}],"pageSize":50,"totalPages":1,"total":14,"page":1,"nearbyCities":[]}]},"statePage":{"name":"Alaska","abbreviation":"AK","url":"restaurants\u002Fak","title_tag":"AK Restaurants | Explore Alaska Menus - MenuPages","meta_description":"Explore AK restaurants on MenuPages, your online source for restaurant menus throughout the state of Alaska. Dining in? Order online for delivery or takeout with MenuPages. Find your next meal now ..."},"recentSearches":[],"variants":{"hero_text":{"selected":false,"value":{"main":"Delivering your next meal","sub":"MenuPages offers online ordering for delivery and takeout"}}},"api":{},"analyticsModule":{},"route":{"name":"cityPage","path":"\u002Frestaurants\u002Fak-anchorage","hash":"","query":{},"params":{"stateCity":"ak-anchorage"},"fullPath":"\u002Frestaurants\u002Fak-anchorage","meta":{},"from":{"name":null,"path":"\u002F","hash":"","query":{},"params":{},"fullPath":"\u002F","meta":{}}}}
